[
  {
    "name": "Savoy Palace",
    "area": "Funchal Lido / São Martinho",
    "region": "Funchal",
    "rating": 9.3,
    "review_count": 2029,
    "price_tier": "luxury",
    "price_range": "€185-350",
    "type": "hotel",
    "highlight": "Largest spa in Portugal (3,000 sqm), two rooftop infinity pools, 5 restaurants. Modern dramatic architecture with tropical plants integrated into glass and concrete.",
    "lat": 32.6410,
    "lng": -16.9340
  },
  {
    "name": "Reid's Palace, A Belmond Hotel, Madeira",
    "area": "Funchal West",
    "region": "Funchal",
    "rating": 9.7,
    "review_count": 968,
    "price_tier": "luxury",
    "price_range": "€300-550",
    "type": "hotel",
    "highlight": "Iconic cliff-top hotel since 1891 where Churchill painted. Michelin-starred William Restaurant, famous afternoon tea, and pool carved into the cliff face.",
    "lat": 32.6390,
    "lng": -16.9380
  },
  {
    "name": "The Cliff Bay (Porto Bay)",
    "area": "Funchal Lido / São Martinho",
    "region": "Funchal",
    "rating": 9.1,
    "review_count": 1200,
    "price_tier": "luxury",
    "price_range": "€200-400",
    "type": "hotel",
    "highlight": "Direct ocean access with saltwater swimming platform, home to Il Gallo d'Oro (2 Michelin stars). Serene garden atmosphere with panoramic sea views.",
    "lat": 32.6380,
    "lng": -16.9400
  },
  {
    "name": "Quinta da Casa Branca",
    "area": "Funchal Lido / São Martinho",
    "region": "Funchal",
    "rating": 9.4,
    "review_count": 850,
    "price_tier": "luxury",
    "price_range": "€150-280",
    "type": "boutique hotel",
    "highlight": "Member of Small Luxury Hotels of the World. Set on a historic wine estate with 28,000 sqm of subtropical gardens and a banana plantation. Anti-resort elegance.",
    "lat": 32.6430,
    "lng": -16.9370
  },
  {
    "name": "Quinta Jardins do Lago",
    "area": "Funchal Heights",
    "region": "Funchal",
    "rating": 9.5,
    "review_count": 900,
    "price_tier": "luxury",
    "price_range": "€180-320",
    "type": "boutique hotel",
    "highlight": "Ranked #1 hotel in Funchal on TripAdvisor. Magnificent gardens with heated pool, bridge feature, and immaculate rooms with garden or sea views. Intimate and refined.",
    "lat": 32.6490,
    "lng": -16.9260
  },
  {
    "name": "Quinta da Bela Vista",
    "area": "Funchal Heights",
    "region": "Funchal",
    "rating": 9.2,
    "review_count": 750,
    "price_tier": "luxury",
    "price_range": "€160-300",
    "type": "boutique hotel",
    "highlight": "5-star boutique manor house with tranquil gardens, traditional decor, and serene hilltop atmosphere. Known for warm attentive service and spa with sauna.",
    "lat": 32.6470,
    "lng": -16.9310
  },
  {
    "name": "Pestana Casino Park",
    "area": "Funchal West",
    "region": "Funchal",
    "rating": 8.2,
    "review_count": 1800,
    "price_tier": "upper-mid",
    "price_range": "€120-220",
    "type": "hotel",
    "highlight": "Oscar Niemeyer-designed 5-star on 15,000 sqm of gardens adjacent to Funchal Casino. Dramatic brutalist architecture, ocean views, and resort-scale facilities.",
    "lat": 32.6395,
    "lng": -16.9350
  },
  {
    "name": "Meliá Madeira Mare",
    "area": "Funchal Lido / São Martinho",
    "region": "Funchal",
    "rating": 8.7,
    "review_count": 924,
    "price_tier": "upper-mid",
    "price_range": "€130-220",
    "type": "hotel",
    "highlight": "5-star in the Lido zone with 220 rooms, most with ocean-view balconies. Infinity pool, spa, and direct access to the seafront promenade.",
    "lat": 32.6400,
    "lng": -16.9420
  },
  {
    "name": "Enotel Lido",
    "area": "Funchal Lido / São Martinho",
    "region": "Funchal",
    "rating": 8.8,
    "review_count": 788,
    "price_tier": "upper-mid",
    "price_range": "€150-250",
    "type": "hotel",
    "highlight": "5-star all-inclusive overlooking the Atlantic with indoor/outdoor pools, spa, sauna, and direct promenade access. One of few genuine all-inclusive options on Madeira.",
    "lat": 32.6390,
    "lng": -16.9440
  },
  {
    "name": "Vidamar Resort Hotel Madeira",
    "area": "Funchal Lido / São Martinho",
    "region": "Funchal",
    "rating": 8.3,
    "review_count": 1154,
    "price_tier": "upper-mid",
    "price_range": "€130-220",
    "type": "hotel",
    "highlight": "Oceanfront 5-star with direct Atlantic access in the Lido area. Multiple pools, large spa, and panoramic ocean views from most rooms. Great for families.",
    "lat": 32.6385,
    "lng": -16.9430
  },
  {
    "name": "Castanheiro Boutique Hotel",
    "area": "Funchal Center",
    "region": "Funchal",
    "rating": 9.3,
    "review_count": 1363,
    "price_tier": "mid-range",
    "price_range": "€99-160",
    "type": "boutique hotel",
    "highlight": "Best value in central Funchal. Rooftop lap pool with harbour views, organic seaweed spa, and walking distance to everything. Exceptional staff consistently praised.",
    "lat": 32.6480,
    "lng": -16.9095
  },
  {
    "name": "The Vine Hotel",
    "area": "Funchal Center",
    "region": "Funchal",
    "rating": 9.0,
    "review_count": 800,
    "price_tier": "upper-mid",
    "price_range": "€120-200",
    "type": "boutique hotel",
    "highlight": "Award-winning design hotel with wine theme. Rooftop infinity pool, UVA restaurant (French-Madeiran fusion), and Wine Therapy Spa. Minimalist modern aesthetic.",
    "lat": 32.6490,
    "lng": -16.9080
  },
  {
    "name": "ARTS IN Hotel Conde Carvalhal",
    "area": "Funchal Center",
    "region": "Funchal",
    "rating": 9.2,
    "review_count": 929,
    "price_tier": "mid-range",
    "price_range": "€90-160",
    "type": "boutique hotel",
    "highlight": "Charming boutique hotel in a historic building with magnificent gardens and 10,000 sqm grounds. Heated outdoor pool, spacious rooms with garden views, family-run warmth.",
    "lat": 32.6500,
    "lng": -16.9120
  },
  {
    "name": "Sé Boutique Hotel",
    "area": "Funchal Center",
    "region": "Funchal",
    "rating": 8.9,
    "review_count": 648,
    "price_tier": "mid-range",
    "price_range": "€80-140",
    "type": "boutique hotel",
    "highlight": "Old-world European charm meets modern boutique. Rooftop bar with city views, quirky retro atmosphere, and central location steps from the Cathedral.",
    "lat": 32.6485,
    "lng": -16.9100
  },
  {
    "name": "TURIM Santa Maria Hotel",
    "area": "Funchal Old Town",
    "region": "Funchal",
    "rating": 9.0,
    "review_count": 700,
    "price_tier": "mid-range",
    "price_range": "€100-160",
    "type": "hotel",
    "highlight": "Modern 4-star in the heart of Old Town with rooftop pool and restaurant. 92 rooms with magnificent views, walking distance to painted doors street and harbour.",
    "lat": 32.6460,
    "lng": -16.9070
  },
  {
    "name": "Hotel Madeira",
    "area": "Funchal Old Town",
    "region": "Funchal",
    "rating": 8.6,
    "review_count": 535,
    "price_tier": "mid-range",
    "price_range": "€80-120",
    "type": "hotel",
    "highlight": "Well-known 3-star with personalized service in Old Town. Excellent location near Mercado dos Lavradores, friendly staff, and good breakfast. Solid mid-range pick.",
    "lat": 32.6470,
    "lng": -16.9075
  },
  {
    "name": "Hotel do Carmo (The Editory Garden Carmo)",
    "area": "Funchal Center",
    "region": "Funchal",
    "rating": 8.7,
    "review_count": 1417,
    "price_tier": "mid-range",
    "price_range": "€80-130",
    "type": "hotel",
    "highlight": "Stylish mid-century modern property with rooftop pool and panoramic ocean views. 5-minute walk to farmers market. Free breakfast included. Great value.",
    "lat": 32.6495,
    "lng": -16.9105
  },
  {
    "name": "Porto Santa Maria (PortoBay)",
    "area": "Funchal Old Town",
    "region": "Funchal",
    "rating": 8.5,
    "review_count": 900,
    "price_tier": "mid-range",
    "price_range": "€100-170",
    "type": "apart-hotel",
    "highlight": "Adults-only waterfront hotel in Old Town with kitchenettes in all rooms. 30+ restaurants within 3-minute walk. Best restaurant-access location in Funchal.",
    "lat": 32.6450,
    "lng": -16.9060
  },
  {
    "name": "Porto Mare (PortoBay)",
    "area": "Funchal West",
    "region": "Funchal",
    "rating": 8.4,
    "review_count": 850,
    "price_tier": "mid-range",
    "price_range": "€100-165",
    "type": "hotel",
    "highlight": "All-in-one resort with 5 pools, 4 restaurants, spa, and sports facilities. Free shuttle to Funchal center. Great for families wanting resort-style amenities.",
    "lat": 32.6375,
    "lng": -16.9450
  },
  {
    "name": "The Views Baía (Adults Only)",
    "area": "Funchal Center",
    "region": "Funchal",
    "rating": 8.9,
    "review_count": 2125,
    "price_tier": "mid-range",
    "price_range": "€90-150",
    "type": "hotel",
    "highlight": "Adults-only 4-star with full-service spa, indoor and outdoor pools, and 2 restaurants. Scenic beauty with excellent amenities and top-notch service.",
    "lat": 32.6475,
    "lng": -16.9110
  },
  {
    "name": "Hotel Baía Azul",
    "area": "Funchal Lido / São Martinho",
    "region": "Funchal",
    "rating": 8.7,
    "review_count": 1100,
    "price_tier": "mid-range",
    "price_range": "€80-140",
    "type": "hotel",
    "highlight": "Newly renovated 4-star, 4-minute walk from beachfront. Consistently praised for staff, excellent breakfasts, and spectacular sea views. Excellent value.",
    "lat": 32.6395,
    "lng": -16.9360
  },
  {
    "name": "Pestana CR7 Funchal",
    "area": "Funchal Center",
    "region": "Funchal",
    "rating": 8.3,
    "review_count": 2123,
    "price_tier": "mid-range",
    "price_range": "€100-170",
    "type": "hotel",
    "highlight": "Cristiano Ronaldo collaboration with Pestana Group. Contemporary lifestyle hotel 300m from marina with rooftop pool. Modern design, harbour views, great for sports fans.",
    "lat": 32.6455,
    "lng": -16.9085
  },
  {
    "name": "Hotel Girassol - Suite Hotel",
    "area": "Funchal Lido / São Martinho",
    "region": "Funchal",
    "rating": 8.3,
    "review_count": 387,
    "price_tier": "mid-range",
    "price_range": "€80-130",
    "type": "apart-hotel",
    "highlight": "4-star suite hotel with separate living areas in most rooms. Seafront location, pool with bar, expansive breakfast, and spa. Good space for the price.",
    "lat": 32.6388,
    "lng": -16.9410
  },
  {
    "name": "Madeira Panoramico Hotel",
    "area": "Funchal Heights",
    "region": "Funchal",
    "rating": 8.6,
    "review_count": 1141,
    "price_tier": "mid-range",
    "price_range": "€80-130",
    "type": "hotel",
    "highlight": "Hillside 4-star with stunning panoramic views of Funchal bay and mountains. Two pools, tennis, squash, and free shuttle service. Great value with a view.",
    "lat": 32.6530,
    "lng": -16.9400
  },
  {
    "name": "Quinta do Monte Panoramic Gardens",
    "area": "Monte",
    "region": "Funchal",
    "rating": 8.4,
    "review_count": 600,
    "price_tier": "mid-range",
    "price_range": "€55-120",
    "type": "hotel",
    "highlight": "Historic manor house in Monte village surrounded by mature gardens. 2-minute walk to cable car terminal, indoor pool, and Monte Garden restaurant. Best value hillside stay.",
    "lat": 32.6670,
    "lng": -16.9100
  },
  {
    "name": "Quinta Mirabela",
    "area": "Funchal Heights",
    "region": "Funchal",
    "rating": 8.2,
    "review_count": 350,
    "price_tier": "mid-range",
    "price_range": "€80-130",
    "type": "boutique hotel",
    "highlight": "Intimate boutique hotel with breathtaking views of Funchal and the ocean. Tranquil hillside setting with tasteful public spaces and personable service.",
    "lat": 32.6550,
    "lng": -16.9150
  },
  {
    "name": "Pestana Village Garden Hotel",
    "area": "Funchal Lido / São Martinho",
    "region": "Funchal",
    "rating": 8.4,
    "review_count": 800,
    "price_tier": "mid-range",
    "price_range": "€80-140",
    "type": "hotel",
    "highlight": "4-star garden resort with traditional Madeiran architecture spread across 5,000 sqm of tropical gardens. Fitness facilities, pool, and quiet residential setting.",
    "lat": 32.6410,
    "lng": -16.9380
  },
  {
    "name": "Pestana Promenade",
    "area": "Funchal Lido / São Martinho",
    "region": "Funchal",
    "rating": 8.5,
    "review_count": 750,
    "price_tier": "mid-range",
    "price_range": "€90-150",
    "type": "hotel",
    "highlight": "Modern 4-star on the oceanfront promenade. Contemporary design, ocean-view rooms, rooftop pool, and direct access to Lido seafront walking path.",
    "lat": 32.6393,
    "lng": -16.9415
  },
  {
    "name": "Pestana Churchill Bay",
    "area": "Câmara de Lobos",
    "region": "Câmara de Lobos",
    "rating": 9.2,
    "review_count": 923,
    "price_tier": "upper-mid",
    "price_range": "€130-200",
    "type": "boutique hotel",
    "highlight": "4-star boutique in the fishing village Churchill loved to paint. Panoramic harbour views, modern design blending with historic setting, and rooftop pool.",
    "lat": 32.6500,
    "lng": -16.9720
  },
  {
    "name": "Pestana Fisherman Village",
    "area": "Câmara de Lobos",
    "region": "Câmara de Lobos",
    "rating": 8.9,
    "review_count": 776,
    "price_tier": "mid-range",
    "price_range": "€90-150",
    "type": "boutique hotel",
    "highlight": "Stylish boutique in the historic fishing harbour surrounded by banana plantation hillsides. Rooftop panoramic pool, excellent breakfast, and tasteful rustic-modern design.",
    "lat": 32.6510,
    "lng": -16.9730
  },
  {
    "name": "Estalagem da Ponta do Sol",
    "area": "Ponta do Sol",
    "region": "Ponta do Sol",
    "rating": 8.8,
    "review_count": 827,
    "price_tier": "upper-mid",
    "price_range": "€120-200",
    "type": "boutique hotel",
    "highlight": "Design hotel on a cliff edge above the village, renovated from a 19th-century quinta. 54 rooms with ocean/cliff/village views, outdoor and indoor pools, and the digital nomad hub town at your feet.",
    "lat": 32.6714,
    "lng": -17.0960
  },
  {
    "name": "Escarpa - The Madeira Hideaway",
    "area": "Ponta do Sol",
    "region": "Ponta do Sol",
    "rating": 9.0,
    "review_count": 400,
    "price_tier": "upper-mid",
    "price_range": "€130-220",
    "type": "boutique hotel",
    "highlight": "Exclusive hideaway perched atop a dramatic escarpment with infinity pool and hot tub overlooking the Atlantic. Rooms and apartments available. Tranquility and natural beauty.",
    "lat": 32.6700,
    "lng": -17.1050
  },
  {
    "name": "Saccharum Resort & Spa (Savoy Signature)",
    "area": "Calheta",
    "region": "Calheta",
    "rating": 9.0,
    "review_count": 1200,
    "price_tier": "upper-mid",
    "price_range": "€130-190",
    "type": "hotel",
    "highlight": "5-star design resort on the southwest coast next to Madeira's only sandy beach. Rooftop infinity pool, premium spa, and spectacular west-facing sunset views from the Fly bar.",
    "lat": 32.7180,
    "lng": -17.1730
  },
  {
    "name": "Calheta Beach Hotel (Savoy Signature)",
    "area": "Calheta",
    "region": "Calheta",
    "rating": 8.5,
    "review_count": 900,
    "price_tier": "upper-mid",
    "price_range": "€140-220",
    "type": "hotel",
    "highlight": "One of few all-inclusive options in Madeira, directly on Calheta's golden sand beach. 153 rooms with balconies, 3 restaurants, beach bar, and marina views.",
    "lat": 32.7175,
    "lng": -17.1720
  },
  {
    "name": "Hotel Atrio",
    "area": "Estreito da Calheta",
    "region": "Calheta",
    "rating": 9.2,
    "review_count": 374,
    "price_tier": "mid-range",
    "price_range": "€90-150",
    "type": "boutique hotel",
    "highlight": "Family-run boutique hotel above Calheta with 22 rooms, 10,000 sqm garden, and heated pool. Levada trail starts at the property. Peaceful hillside retreat with mountain views.",
    "lat": 32.7290,
    "lng": -17.1680
  },
  {
    "name": "Aqua Natura Bay",
    "area": "Porto Moniz",
    "region": "Porto Moniz",
    "rating": 9.0,
    "review_count": 3506,
    "price_tier": "mid-range",
    "price_range": "€100-140",
    "type": "hotel",
    "highlight": "4-star right beside Porto Moniz's famous natural lava pools (free guest access year-round). Modern rooms with Atlantic views, hot tub, and friendly service. Best north coast base.",
    "lat": 32.8665,
    "lng": -17.1675
  },
  {
    "name": "Aqua Natura Madeira Hotel",
    "area": "Porto Moniz",
    "region": "Porto Moniz",
    "rating": 9.1,
    "review_count": 1100,
    "price_tier": "mid-range",
    "price_range": "€90-140",
    "type": "hotel",
    "highlight": "Elegant 4-star perched on the rugged northwest coast with Atlantic Ocean views. Sister property to Aqua Natura Bay with its own restaurant and coastal atmosphere.",
    "lat": 32.8670,
    "lng": -17.1670
  },
  {
    "name": "Hotel Euro Moniz",
    "area": "Porto Moniz",
    "region": "Porto Moniz",
    "rating": 8.5,
    "review_count": 3004,
    "price_tier": "budget",
    "price_range": "€50-85",
    "type": "hotel",
    "highlight": "Affordable 3-star near the natural pools with indoor pool, restaurant, and bar. Good budget base for exploring Porto Moniz and the northwest coast.",
    "lat": 32.8660,
    "lng": -17.1690
  },
  {
    "name": "Quinta do Furão",
    "area": "Santana",
    "region": "Santana",
    "rating": 9.3,
    "review_count": 1348,
    "price_tier": "mid-range",
    "price_range": "€90-140",
    "type": "boutique hotel",
    "highlight": "Spectacular cliffside hotel on 5 acres of organic gardens with dramatic north-coast views. Pool, sauna, and direct access to levada trails. Best-rated property in Santana.",
    "lat": 32.8150,
    "lng": -16.8700
  },
  {
    "name": "Hotel O Colmo",
    "area": "Santana",
    "region": "Santana",
    "rating": 8.0,
    "review_count": 1370,
    "price_tier": "budget",
    "price_range": "€46-80",
    "type": "hotel",
    "highlight": "Central Santana location near traditional thatched houses. 50 rooms, heated pool, jacuzzi, and restaurant. Friendly staff and convenient for north coast exploration.",
    "lat": 32.8100,
    "lng": -16.8740
  },
  {
    "name": "Dreams Madeira Resort Spa & Marina",
    "area": "Caniçal (near Machico)",
    "region": "Machico",
    "rating": 8.7,
    "review_count": 1046,
    "price_tier": "upper-mid",
    "price_range": "€130-220",
    "type": "hotel",
    "highlight": "Part of Hyatt's World of Dreams. Clifftop resort with marina, spa, multiple pools, and panoramic views of Desertas Islands. Secluded east coast location near Ponta de São Lourenço.",
    "lat": 32.7370,
    "lng": -16.7310
  },
  {
    "name": "Dom Pedro Madeira",
    "area": "Machico",
    "region": "Machico",
    "rating": 8.0,
    "review_count": 4283,
    "price_tier": "mid-range",
    "price_range": "€80-130",
    "type": "hotel",
    "highlight": "4-star in Machico bay with panoramic sea views and Desertas Islands vistas. Near sandy beach, 10 minutes from airport. Live music and waterfront dining.",
    "lat": 32.7170,
    "lng": -16.7630
  },
  {
    "name": "Albatroz Beach & Yacht Club",
    "area": "Santa Cruz (near Machico)",
    "region": "Machico",
    "rating": 9.0,
    "review_count": 800,
    "price_tier": "upper-mid",
    "price_range": "€150-250",
    "type": "hotel",
    "highlight": "5-star beachfront near the airport with yacht club facilities, pools, and spa. Couples rate it 9.4. Excellent base for east coast exploration and Ponta de São Lourenço.",
    "lat": 32.6880,
    "lng": -16.7900
  },
  {
    "name": "Estalagem do Vale",
    "area": "São Vicente",
    "region": "São Vicente",
    "rating": 8.4,
    "review_count": 600,
    "price_tier": "budget",
    "price_range": "€37-80",
    "type": "hotel",
    "highlight": "Historic country-house inn in the Laurissilva Forest valley (UNESCO World Heritage). Indoor/outdoor pools, restaurant with €20 set dinner menu. Genuine nature retreat.",
    "lat": 32.7910,
    "lng": -17.0350
  },
  {
    "name": "Estalagem do Mar",
    "area": "São Vicente",
    "region": "São Vicente",
    "rating": 8.0,
    "review_count": 500,
    "price_tier": "mid-range",
    "price_range": "€60-110",
    "type": "hotel",
    "highlight": "99-room hotel in the centre of São Vicente with 2 outdoor pools, tennis court, sauna, and restaurant. Close to volcanic caves. Good mid-range north coast option.",
    "lat": 32.7930,
    "lng": -17.0420
  },
  {
    "name": "Casa da Piedade",
    "area": "São Vicente",
    "region": "São Vicente",
    "rating": 9.4,
    "review_count": 1224,
    "price_tier": "budget",
    "price_range": "€50-80",
    "type": "guesthouse/B&B",
    "highlight": "Charming guesthouse on the spectacular north coast with Wi-Fi and warm hospitality. Consistently praised as 'the best' by guests. Walking distance to São Vicente centre and volcanic caves.",
    "lat": 32.7920,
    "lng": -17.0380
  },
  {
    "name": "North Coast Guest House (Madeira Surf Lodge)",
    "area": "São Vicente",
    "region": "São Vicente",
    "rating": 8.6,
    "review_count": 200,
    "price_tier": "budget",
    "price_range": "€38-65",
    "type": "guesthouse/B&B",
    "highlight": "Recently renovated 8-room guesthouse 1km from centre with mountain views, garden, free WiFi and parking. Budget-friendly surf-oriented base on the north coast.",
    "lat": 32.7935,
    "lng": -17.0400
  },
  {
    "name": "Jaca Hostel",
    "area": "Funchal Center",
    "region": "Funchal",
    "rating": 9.1,
    "review_count": 500,
    "price_tier": "budget",
    "price_range": "€25-60",
    "type": "guesthouse/B&B",
    "highlight": "Best-rated hostel in Funchal, housed in a 19th-century family home. Garden, bar, inner yard, and 1-minute walk to city hall. Cozy vibe with excellent social atmosphere.",
    "lat": 32.6488,
    "lng": -16.9095
  },
  {
    "name": "29 Madeira Hostel",
    "area": "Funchal Center",
    "region": "Funchal",
    "rating": 8.4,
    "review_count": 400,
    "price_tier": "budget",
    "price_range": "€24-55",
    "type": "guesthouse/B&B",
    "highlight": "Clean and comfortable hostel in central Funchal with exceptional staff. Dorms and private rooms available. Walking distance to all major attractions and transport.",
    "lat": 32.6492,
    "lng": -16.9090
  },
  {
    "name": "Santa Maria Hostel",
    "area": "Funchal Old Town",
    "region": "Funchal",
    "rating": 8.2,
    "review_count": 450,
    "price_tier": "budget",
    "price_range": "€25-55",
    "type": "guesthouse/B&B",
    "highlight": "Renovated historic building in Old Town retaining original Madeiran box roofs and wood beams. Close to beach, painted doors, and all city sights. Social atmosphere.",
    "lat": 32.6455,
    "lng": -16.9065
  },
  {
    "name": "Casa do Papagaio Verde",
    "area": "Funchal Heights",
    "region": "Funchal",
    "rating": 9.0,
    "review_count": 300,
    "price_tier": "budget",
    "price_range": "€45-75",
    "type": "guesthouse/B&B",
    "highlight": "Affordable guesthouse on Funchal outskirts with sea views, beautiful garden, homemade jam breakfast, and some rooms with cooking facilities. Warm, welcoming owners.",
    "lat": 32.6560,
    "lng": -16.9200
  },
  {
    "name": "A Casa Do Caseiro",
    "area": "Funchal - Santa Luzia",
    "region": "Funchal",
    "rating": 9.2,
    "review_count": 350,
    "price_tier": "budget",
    "price_range": "€50-80",
    "type": "guesthouse/B&B",
    "highlight": "8 rooms with private balconies and panoramic Funchal Bay views. Swimming pool, snack bar, and peaceful residential setting in Santa Luzia, 1.6 miles from centre.",
    "lat": 32.6520,
    "lng": -16.9130
  },
  {
    "name": "Dazkarizeh73",
    "area": "Ribeira Brava",
    "region": "Ribeira Brava",
    "rating": 8.8,
    "review_count": 250,
    "price_tier": "mid-range",
    "price_range": "€80-140",
    "type": "boutique hotel",
    "highlight": "Exotic boutique hotel with outdoor infinity pool and hot tub with ocean views. Fitness centre, snack bar, and unique design aesthetic on the south coast between Funchal and Calheta.",
    "lat": 32.6730,
    "lng": -17.0610
  }
]
